stop_name,stop_id,route_id
1 Av,L06N,L
1 Av,L06S,L
103 St,A18N,B
103 St,A18S,B
103 St,624N,6X
103 St,A18S,C
103 St,624N,6
103 St,119N,1
103 St,A18N,C
103 St,624S,6
103 St,119S,1
103 St-Corona Plaza,706N,7
103 St-Corona Plaza,706S,7
104 St,J14N,J
104 St,A63S,A
104 St,J14S,J
104 St,A63N,A
110 St,623S,6
110 St,623N,6X
110 St,623N,6
111 St,J13N,J
111 St,705S,7
111 St,705N,7
111 St,A64N,A
111 St,A64S,A
111 St,J13S,J
116 St,226N,2
116 St,226S,2
116 St,622N,6
116 St,A16S,B
116 St,622S,6
116 St,A16S,C
116 St,A16N,C
116 St,622N,6X
116 St,226N,3
116 St,A16N,B
116 St,226S,3
116 St-Columbia University,117S,1
116 St-Columbia University,117N,1
121 St,J12S,J
121 St,J12N,J
125 St,621S,6
125 St,116N,1
125 St,621N,4
125 St,A15S,A
125 St,621S,4
125 St,A15S,B
125 St,A15N,A
125 St,621S,5
125 St,225N,2
125 St,A15N,C
125 St,A15N,B
125 St,A15N,D
125 St,225S,2
125 St,A15S,C
125 St,621N,6X
125 St,225S,3
125 St,A15S,D
125 St,621N,5
125 St,116S,1
125 St,621N,6
125 St,225N,3
135 St,A14S,C
135 St,224N,2
135 St,224S,2
135 St,224S,3
135 St,A14N,C
135 St,A14S,B
135 St,A14N,B
135 St,224N,3
137 St-City College,115N,1
137 St-City College,115S,1
138 St-Grand Concourse,416N,4
138 St-Grand Concourse,416S,4
138 St-Grand Concourse,416N,5
138 St-Grand Concourse,416S,5
14 St,132S,1
14 St,A31S,C
14 St,D19S,M
14 St,D19S,F
14 St,A31N,A
14 St,132N,2
14 St,A31N,C
14 St,A31S,E
14 St,D19N,F
14 St,132N,1
14 St,132S,3
14 St,A31N,E
14 St,D19N,M
14 St,A31S,A
14 St,132N,3
14 St,132S,2
14 St-Union Sq,635S,6
14 St-Union Sq,L03S,L
14 St-Union Sq,635N,6
14 St-Union Sq,L03N,L
14 St-Union Sq,R20N,Q
14 St-Union Sq,R20S,R
14 St-Union Sq,R20N,N
14 St-Union Sq,R20S,N
14 St-Union Sq,R20S,Q
14 St-Union Sq,635N,5
14 St-Union Sq,635S,5
14 St-Union Sq,635S,4
14 St-Union Sq,R20S,W
14 St-Union Sq,635N,4
14 St-Union Sq,R20N,R
14 St-Union Sq,R20N,W
14 St-Union Sq,635N,6X
145 St,D13N,D
145 St,114S,1
145 St,D13S,D
145 St,D13N,B
145 St,A12N,C
145 St,A12S,A
145 St,A12S,C
145 St,114N,1
145 St,302N,3
145 St,D13S,B
145 St,A12N,A
145 St,302S,3
149 St-Grand Concourse,222N,2
149 St-Grand Concourse,415S,4
149 St-Grand Concourse,222S,2
149 St-Grand Concourse,415N,4
149 St-Grand Concourse,222N,5
149 St-Grand Concourse,222S,5
15 St-Prospect Park,F25S,G
15 St-Prospect Park,F25S,F
15 St-Prospect Park,F25N,G
15 St-Prospect Park,F25N,F
155 St,D12S,B
155 St,D12S,D
155 St,D12N,D
155 St,A11N,C
155 St,D12N,B
155 St,A11S,C
157 St,113S,1
157 St,113N,1
161 St-Yankee Stadium,D11S,D
161 St-Yankee Stadium,D11S,B
161 St-Yankee Stadium,414N,4
161 St-Yankee Stadium,414S,4
161 St-Yankee Stadium,D11N,D
161 St-Yankee Stadium,D11N,B
163 St-Amsterdam Av,A10S,C
163 St-Amsterdam Av,A10N,C
167 St,413S,4
167 St,413N,4
167 St,D10N,D
167 St,D10S,D
167 St,D10N,B
167 St,D10S,B
168 St,A09N,A
168 St,A09N,C
168 St,A09S,A
168 St,A09S,C
168 St-Washington Hts,112N,1
168 St-Washington Hts,112S,1
169 St,F02N,F
169 St,F02S,F
170 St,D09N,D
170 St,412N,4
170 St,D09S,B
170 St,412S,4
170 St,D09N,B
170 St,D09S,D
174 St,215N,2
174 St,215N,5
174 St,215S,2
174 St,215S,5
174-175 Sts,D08S,D
174-175 Sts,D08N,B
174-175 Sts,D08N,D
174-175 Sts,D08S,B
175 St,A07S,A
175 St,A07N,A
176 St,410N,4
176 St,410S,4
18 Av,N05N,N
18 Av,N05S,N
18 Av,F30N,F
18 Av,B19S,D
18 Av,F30S,F
18 Av,B19N,D
18 St,131N,1
18 St,131S,1
181 St,111N,1
181 St,A06S,A
181 St,111S,1
181 St,A06N,A
182-183 Sts,D06S,D
182-183 Sts,D06S,B
182-183 Sts,D06N,B
182-183 Sts,D06N,D
183 St,408N,4
183 St,408S,4
190 St,A05N,A
190 St,A05S,A
191 St,110S,1
191 St,110N,1
2 Av,F14S,F
2 Av,F14N,F
20 Av,N06N,N
20 Av,N06S,N
20 Av,B20N,D
20 Av,B20S,D
207 St,108N,1
207 St,108S,1
21 St,G24N,G
21 St,G24S,G
21 St-Queensbridge,B04S,F
21 St-Queensbridge,B04N,F
215 St,107N,1
215 St,107S,1
219 St,207N,2
219 St,207S,2
225 St,206N,2
225 St,206S,2
23 St,R19N,W
23 St,R19S,W
23 St,634S,6
23 St,A30N,C
23 St,D18N,M
23 St,D18N,F
23 St,R19S,R
23 St,A30N,E
23 St,130N,1
23 St,A30S,C
23 St,A30S,E
23 St,634N,6
23 St,634N,6X
23 St,D18S,F
23 St,R19N,R
23 St,130S,1
23 St,D18S,M
231 St,104N,1
231 St,104S,1
233 St,205S,2
233 St,205N,2
238 St,103N,1
238 St,103S,1
25 Av,B22N,D
25 Av,B22S,D
25 St,R35S,R
25 St,R35N,R
28 St,R18S,W
28 St,633N,6X
28 St,R18N,W
28 St,R18N,R
28 St,633N,6
28 St,129S,1
28 St,R18S,R
28 St,633S,6
28 St,129N,1
3 Av,L05S,L
3 Av,L05N,L
3 Av-138 St,619S,6
3 Av-138 St,619N,6
3 Av-138 St,619N,6X
3 Av-149 St,221N,2
3 Av-149 St,221S,5
3 Av-149 St,221N,5
3 Av-149 St,221S,2
30 Av,R04N,N
30 Av,R04S,W
30 Av,R04N,W
30 Av,R04S,N
33 St,632N,6X
33 St,632N,6
33 St,632S,6
33 St-Rawson St,716S,7X
33 St-Rawson St,716N,7
33 St-Rawson St,716S,7
33 St-Rawson St,716N,7X
34 St-Herald Sq,D17N,D
34 St-Herald Sq,R17N,R
34 St-Herald Sq,D17S,D
34 St-Herald Sq,R17N,W
34 St-Herald Sq,D17N,B
34 St-Herald Sq,R17S,W
34 St-Herald Sq,R17S,Q
34 St-Herald Sq,D17N,M
34 St-Herald Sq,D17S,M
34 St-Herald Sq,R17S,N
34 St-Herald Sq,R17N,N
34 St-Herald Sq,D17N,F
34 St-Herald Sq,D17S,B
34 St-Herald Sq,D17S,F
34 St-Herald Sq,R17N,Q
34 St-Herald Sq,R17S,R
34 St-Hudson Yards,726N,7
34 St-Hudson Yards,726S,7
34 St-Hudson Yards,726S,7X
34 St-Hudson Yards,726N,7X
34 St-Penn Station,128N,2
34 St-Penn Station,A28S,E
34 St-Penn Station,A28S,C
34 St-Penn Station,A28N,C
34 St-Penn Station,128N,3
34 St-Penn Station,A28S,A
34 St-Penn Station,128S,2
34 St-Penn Station,128S,1
34 St-Penn Station,128S,3
34 St-Penn Station,A28N,A
34 St-Penn Station,128N,1
34 St-Penn Station,A28N,E
36 Av,R06N,W
36 Av,R06N,N
36 Av,R06S,W
36 Av,R06S,N
36 St,G20N,M
36 St,G20S,R
36 St,R36N,N
36 St,G20S,M
36 St,R36S,N
36 St,R36S,R
36 St,R36S,D
36 St,R36N,R
36 St,R36N,D
36 St,G20N,R
39 Av-Dutch Kills,R08N,W
39 Av-Dutch Kills,R08S,W
39 Av-Dutch Kills,R08S,N
39 Av-Dutch Kills,R08N,N
4 Av-9 St,R33N,R
4 Av-9 St,R33S,R
4 Av-9 St,F23S,F
4 Av-9 St,F23N,G
4 Av-9 St,F23S,G
4 Av-9 St,F23N,F
40 St-Lowery St,715N,7X
40 St-Lowery St,715S,7
40 St-Lowery St,715N,7
40 St-Lowery St,715S,7X
42 St-Bryant Pk,D16N,F
42 St-Bryant Pk,D16S,M
42 St-Bryant Pk,D16N,D
42 St-Bryant Pk,D16N,M
42 St-Bryant Pk,D16S,D
42 St-Bryant Pk,D16S,B
42 St-Bryant Pk,D16S,F
42 St-Bryant Pk,D16N,B
42 St-Port Authority Bus Terminal,A27S,E
42 St-Port Authority Bus Terminal,A27N,C
42 St-Port Authority Bus Terminal,A27N,E
42 St-Port Authority Bus Terminal,A27S,A
42 St-Port Authority Bus Terminal,A27S,C
42 St-Port Authority Bus Terminal,A27N,A
45 St,R39N,R
45 St,R39S,R
46 St,G18N,M
46 St,G18N,R
46 St,G18S,M
46 St,G18S,R
46 St-Bliss St,714N,7X
46 St-Bliss St,714N,7
46 St-Bliss St,714S,7
46 St-Bliss St,714S,7X
47-50 Sts-Rockefeller Ctr,D15N,B
47-50 Sts-Rockefeller Ctr,D15S,M
47-50 Sts-Rockefeller Ctr,D15S,B
47-50 Sts-Rockefeller Ctr,D15N,D
47-50 Sts-Rockefeller Ctr,D15S,F
47-50 Sts-Rockefeller Ctr,D15N,F
47-50 Sts-Rockefeller Ctr,D15N,M
47-50 Sts-Rockefeller Ctr,D15S,D
49 St,R15N,N
49 St,R15S,R
49 St,R15S,W
49 St,R15S,N
49 St,R15N,R
49 St,R15N,W
5 Av,724S,7
5 Av,724N,7
5 Av,724N,7X
5 Av,724S,7X
5 Av/53 St,F12S,M
5 Av/53 St,F12N,E
5 Av/53 St,F12N,M
5 Av/53 St,F12S,E
5 Av/59 St,R13N,N
5 Av/59 St,R13S,N
5 Av/59 St,R13N,W
5 Av/59 St,R13S,W
5 Av/59 St,R13S,R
5 Av/59 St,R13N,R
50 St,A25S,C
50 St,B14N,D
50 St,126N,1
50 St,A25S,E
50 St,A25N,E
50 St,B14S,D
50 St,A25N,C
50 St,126S,1
51 St,630N,6X
51 St,630N,6
51 St,630S,6
52 St,713N,7
52 St,713N,7X
53 St,R40S,R
53 St,R40N,R
55 St,B15S,D
55 St,B15N,D
57 St,B10N,F
57 St,B10S,F
57 St-7 Av,R14N,Q
57 St-7 Av,R14S,N
57 St-7 Av,R14S,W
57 St-7 Av,R14S,R
57 St-7 Av,R14S,Q
57 St-7 Av,R14N,R
57 St-7 Av,R14N,N
57 St-7 Av,R14N,W
59 St,629S,5
59 St,R41N,N
59 St,R41N,R
59 St,R41S,N
59 St,629N,4
59 St,629N,6X
59 St,629S,6
59 St,629N,5
59 St,629S,4
59 St,R41S,R
59 St,629N,6
59 St-Columbus Circle,A24N,C
59 St-Columbus Circle,A24N,D
59 St-Columbus Circle,125N,1
59 St-Columbus Circle,A24S,D
59 St-Columbus Circle,A24N,A
59 St-Columbus Circle,125S,1
59 St-Columbus Circle,A24S,C
59 St-Columbus Circle,A24S,B
59 St-Columbus Circle,A24N,B
59 St-Columbus Circle,A24S,A
6 Av,L02S,L
6 Av,L02N,L
61 St-Woodside,712S,7
61 St-Woodside,712N,7X
61 St-Woodside,712S,7X
61 St-Woodside,712N,7
62 St,B16S,D
62 St,B16N,D
63 Dr-Rego Park,G10N,M
63 Dr-Rego Park,G10S,M
63 Dr-Rego Park,G10N,R
63 Dr-Rego Park,G10S,R
65 St,G15N,M
65 St,G15S,M
65 St,G15S,R
65 St,G15N,R
66 St-Lincoln Center,124S,1
66 St-Lincoln Center,124N,1
67 Av,G09S,R
67 Av,G09N,M
67 Av,G09S,M
67 Av,G09N,R
68 St-Hunter College,628N,6
68 St-Hunter College,628S,6
68 St-Hunter College,628N,6X
69 St,711N,7X
69 St,711N,7
7 Av,D25S,B
7 Av,D25S,Q
7 Av,D14N,D
7 Av,D14N,E
7 Av,F24S,F
7 Av,D25N,B
7 Av,D14S,D
7 Av,F24N,G
7 Av,F24N,F
7 Av,D14N,B
7 Av,F24S,G
7 Av,D14S,B
7 Av,D25N,Q
7 Av,D14S,E
71 St,B17S,D
71 St,B17N,D
72 St,A22N,C
72 St,123N,3
72 St,Q03N,N
72 St,Q03S,Q
72 St,A22N,B
72 St,123N,2
72 St,123S,3
72 St,123N,1
72 St,A22S,C
72 St,Q03S,N
72 St,123S,1
72 St,Q03N,Q
72 St,A22S,B
72 St,123S,2
74 St-Broadway,710N,7X
74 St-Broadway,710S,7
74 St-Broadway,710N,7
75 Av,F07S,F
75 Av,F07N,F
75 St-Elderts Ln,J17S,J
75 St-Elderts Ln,J17N,J
77 St,R43S,R
77 St,627N,6X
77 St,627N,6
77 St,627S,6
77 St,R43N,R
79 St,122N,1
79 St,122S,1
79 St,B18S,D
79 St,B18N,D
8 Av,L01N,L
8 Av,N02S,N
8 Av,N02N,N
8 Av,L01S,L
8 St-NYU,R21S,R
8 St-NYU,R21S,W
8 St-NYU,R21N,W
8 St-NYU,R21N,R
80 St,A59N,A
80 St,A59S,A
81 St-Museum of Natural History,A21S,B
81 St-Museum of Natural History,A21N,B
81 St-Museum of Natural History,A21S,C
81 St-Museum of Natural History,A21N,C
82 St-Jackson Hts,709S,7
82 St-Jackson Hts,709N,7
85 St-Forest Pkwy,J16N,J
85 St-Forest Pkwy,J16S,J
86 St,626N,6
86 St,121N,1
86 St,Q04S,N
86 St,626N,5
86 St,A20S,B
86 St,Q04N,N
86 St,R44N,R
86 St,A20N,C
86 St,626S,5
86 St,626S,6
86 St,121S,1
86 St,A20N,B
86 St,N10S,N
86 St,N10N,N
86 St,Q04S,Q
86 St,626S,4
86 St,Q04N,Q
86 St,626N,4
86 St,R44S,R
86 St,A20S,C
86 St,626N,6X
88 St,A60S,A
88 St,A60N,A
9 Av,B12N,D
9 Av,B12S,D
90 St-Elmhurst Av,708S,7
90 St-Elmhurst Av,708N,7
96 St,120N,3
96 St,A19S,B
96 St,Q05N,N
96 St,A19N,B
96 St,Q05N,Q
96 St,625N,6
96 St,625N,6X
96 St,120N,2
96 St,625S,6
96 St,120N,1
96 St,120S,1
96 St,A19S,C
96 St,120S,3
96 St,Q05S,Q
96 St,A19N,C
96 St,Q05S,N
96 St,120S,2
Alabama Av,J24S,J
Alabama Av,J24N,J
Allerton Av,210S,2
Allerton Av,210N,2
Annadale,S17S,SI
Annadale,S17S,SS
Annadale,S17N,SI
Aqueduct Racetrack,H01N,A
Aqueduct-N Conduit Av,H02N,A
Aqueduct-N Conduit Av,H02S,A
Arthur Kill,S11S,SI
Arthur Kill,S11N,SI
Arthur Kill,S11S,SS
Astor Pl,636N,6
Astor Pl,636N,6X
Astor Pl,636S,6
Astoria Blvd,R03N,N
Astoria Blvd,R03S,N
Astoria Blvd,R03S,W
Astoria Blvd,R03N,W
Astoria-Ditmars Blvd,R01N,N
Astoria-Ditmars Blvd,R01S,N
Astoria-Ditmars Blvd,R01N,W
Astoria-Ditmars Blvd,R01S,W
Atlantic Av,L24N,L
Atlantic Av,L24S,L
Atlantic Av-Barclays Ctr,R31S,R
Atlantic Av-Barclays Ctr,R31N,D
Atlantic Av-Barclays Ctr,D24N,B
Atlantic Av-Barclays Ctr,235N,2
Atlantic Av-Barclays Ctr,R31S,D
Atlantic Av-Barclays Ctr,235S,5
Atlantic Av-Barclays Ctr,R31N,N
Atlantic Av-Barclays Ctr,235N,4
Atlantic Av-Barclays Ctr,235N,3
Atlantic Av-Barclays Ctr,D24S,Q
Atlantic Av-Barclays Ctr,235N,5
Atlantic Av-Barclays Ctr,R31S,N
Atlantic Av-Barclays Ctr,235S,2
Atlantic Av-Barclays Ctr,235S,4
Atlantic Av-Barclays Ctr,D24N,Q
Atlantic Av-Barclays Ctr,R31N,R
Atlantic Av-Barclays Ctr,235S,3
Atlantic Av-Barclays Ctr,D24S,B
Avenue H,D32N,Q
Avenue H,D32S,Q
Avenue I,F31N,F
Avenue I,F31S,F
Avenue J,D33N,Q
Avenue J,D33S,Q
Avenue M,D34S,Q
Avenue M,D34N,Q
Avenue N,F33S,F
Avenue N,F33N,F
Avenue P,F34S,F
Avenue P,F34N,F
Avenue U,F36N,F
Avenue U,N09N,N
Avenue U,D37S,Q
Avenue U,N09S,N
Avenue U,D37N,Q
Avenue U,F36S,F
Avenue X,F38S,F
Avenue X,F38N,F
Bay 50 St,B23N,D
Bay 50 St,B23S,D
Bay Pkwy,N07N,N
Bay Pkwy,B21N,D
Bay Pkwy,F32N,F
Bay Pkwy,B21S,D
Bay Pkwy,F32S,F
Bay Pkwy,N07S,N
Bay Ridge Av,R42S,R
Bay Ridge Av,R42N,R
Bay Ridge-95 St,R45N,R
Bay Ridge-95 St,R45S,R
Bay Terrace,S20N,SI
Bay Terrace,S20S,SI
Baychester Av,502N,5
Baychester Av,502S,5
Beach 105 St,H14S,H
Beach 105 St,H14N,H
Beach 105 St,H14S,A
Beach 25 St,H10S,A
Beach 25 St,H10N,A
Beach 36 St,H09S,A
Beach 36 St,H09N,A
Beach 44 St,H08S,A
Beach 44 St,H08N,A
Beach 60 St,H07N,A
Beach 60 St,H07S,A
Beach 67 St,H06S,A
Beach 67 St,H06N,A
Beach 90 St,H12S,H
Beach 90 St,H12S,A
Beach 90 St,H12N,H
Beach 98 St,H13S,H
Beach 98 St,H13S,A
Beach 98 St,H13N,H
Bedford Av,L08S,L
Bedford Av,L08N,L
Bedford Park Blvd,D03N,D
Bedford Park Blvd,D03S,D
Bedford Park Blvd,D03S,B
Bedford Park Blvd,D03N,B
Bedford Park Blvd-Lehman College,405N,4
Bedford Park Blvd-Lehman College,405S,4
Bedford-Nostrand Avs,G33S,G
Bedford-Nostrand Avs,G33N,G
Bergen St,236S,2
Bergen St,236S,3
Bergen St,236N,2
Bergen St,F20S,G
Bergen St,236N,3
Bergen St,F20S,F
Bergen St,F20N,G
Bergen St,F20N,F
Beverley Rd,D29S,Q
Beverley Rd,D29N,Q
Beverly Rd,245S,2
Beverly Rd,245S,5
Beverly Rd,245N,2
Beverly Rd,245N,5
Bleecker St,637S,6
Bleecker St,637N,6X
Bleecker St,637N,6
Borough Hall,232S,2
Borough Hall,232N,2
Borough Hall,423S,4
Borough Hall,423S,5
Borough Hall,232N,3
Borough Hall,423N,4
Borough Hall,423N,5
Borough Hall,232S,3
Botanic Garden,S04S,FS
Botanic Garden,S04N,FS
Bowery,M19N,J
Bowery,M19S,J
Bowling Green,420S,4
Bowling Green,420N,4
Bowling Green,420S,5
Bowling Green,420N,5
Briarwood,F05S,F
Briarwood,F05N,F
Brighton Beach,D40S,B
Brighton Beach,D40N,B
Brighton Beach,D40N,Q
Brighton Beach,D40S,Q
Broad Channel,H19N,H
Broad Channel,H04S,H
Broad Channel,H19S,H
Broad Channel,H04N,H
Broad Channel,H04N,A
Broad Channel,H04S,A
Broad St,M23N,J
Broad St,M23S,J
Broadway,R05N,N
Broadway,G30S,G
Broadway,R05S,W
Broadway,R05N,W
Broadway,R05S,N
Broadway,G30N,G
Broadway Junction,A51N,C
Broadway Junction,J27S,J
Broadway Junction,A51S,A
Broadway Junction,L22S,L
Broadway Junction,L22N,L
Broadway Junction,J27N,J
Broadway Junction,A51N,A
Broadway Junction,A51S,C
Broadway-Lafayette St,D21N,F
Broadway-Lafayette St,D21S,M
Broadway-Lafayette St,D21S,F
Broadway-Lafayette St,D21S,B
Broadway-Lafayette St,D21N,B
Broadway-Lafayette St,D21S,D
Broadway-Lafayette St,D21N,D
Broadway-Lafayette St,D21N,M
Bronx Park East,212S,2
Bronx Park East,212N,2
Brook Av,618S,6
Brook Av,618N,6
Brooklyn Bridge-City Hall,640N,5
Brooklyn Bridge-City Hall,640S,6
Brooklyn Bridge-City Hall,640N,6
Brooklyn Bridge-City Hall,640S,4
Brooklyn Bridge-City Hall,640N,4
Brooklyn Bridge-City Hall,640N,6X
Brooklyn Bridge-City Hall,640S,5
Buhre Av,602N,6X
Buhre Av,602S,6
Burke Av,209S,2
Burke Av,209N,2
Burnside Av,409S,4
Burnside Av,409N,4
Bushwick Av-Aberdeen St,L21S,L
Bushwick Av-Aberdeen St,L21N,L
Canal St,Q01S,N
Canal St,A34S,E
Canal St,Q01N,Q
Canal St,Q01N,N
Canal St,R23N,W
Canal St,639N,6X
Canal St,A34S,C
Canal St,A34N,C
Canal St,639S,6
Canal St,135S,1
Canal St,639N,6
Canal St,Q01S,Q
Canal St,M20N,J
Canal St,135N,1
Canal St,R23S,W
Canal St,R23N,R
Canal St,A34S,A
Canal St,R23S,R
Canal St,A34N,E
Canal St,A34N,A
Canal St,M20S,J
Canarsie-Rockaway Pkwy,L29S,L
Canarsie-Rockaway Pkwy,L29N,L
Carroll St,F21S,G
Carroll St,F21N,G
Carroll St,F21N,F
Carroll St,F21S,F
Castle Hill Av,607N,6X
Castle Hill Av,607S,6
Cathedral Pkwy (110 St),118S,1
Cathedral Pkwy (110 St),A17S,C
Cathedral Pkwy (110 St),A17S,B
Cathedral Pkwy (110 St),118N,1
Cathedral Pkwy (110 St),A17N,C
Cathedral Pkwy (110 St),A17N,B
Central Av,M10S,M
Central Av,M10N,M
Central Park North (110 St),227N,3
Central Park North (110 St),227S,2
Central Park North (110 St),227N,2
Central Park North (110 St),227S,3
Chambers St,137S,1
Chambers St,137N,1
Chambers St,A36N,C
Chambers St,137N,2
Chambers St,137N,3
Chambers St,137S,2
Chambers St,A36N,A
Chambers St,M21S,J
Chambers St,A36S,A
Chambers St,137S,3
Chambers St,A36S,C
Chambers St,M21N,J
Chauncey St,J28N,J
Chauncey St,J28S,J
Christopher St-Sheridan Sq,133N,1
Christopher St-Sheridan Sq,133S,1
Church Av,F27S,F
Church Av,D28S,Q
Church Av,244N,2
Church Av,F27N,F
Church Av,F27S,G
Church Av,244S,5
Church Av,244S,2
Church Av,D28N,B
Church Av,D28S,B
Church Av,F27N,G
Church Av,244N,5
Church Av,D28N,Q
City Hall,R24N,W
City Hall,R24S,W
City Hall,R24S,R
City Hall,R24N,R
Clark St,231N,3
Clark St,231N,2
Clark St,231S,2
Clark St,231S,3
Classon Av,G34N,G
Classon Av,G34S,G
Cleveland St,J22S,J
Cleveland St,J22N,J
Clifton,S28S,SI
Clifton,S28N,SI
Clinton-Washington Avs,A44N,C
Clinton-Washington Avs,A44S,C
Clinton-Washington Avs,G35N,G
Clinton-Washington Avs,G35S,G
Coney Island-Stillwell Av,D43S,F
Coney Island-Stillwell Av,D43N,F
Coney Island-Stillwell Av,D43S,N
Coney Island-Stillwell Av,D43S,D
Coney Island-Stillwell Av,D43S,Q
Coney Island-Stillwell Av,D43N,Q
Coney Island-Stillwell Av,D43N,N
Coney Island-Stillwell Av,D43N,D
Cortelyou Rd,D30N,Q
Cortelyou Rd,D30S,Q
Cortlandt St,R25N,W
Cortlandt St,R25S,W
Cortlandt St,R25S,R
Cortlandt St,R25N,R
Court Sq,G22S,G
Court Sq,719S,7X
Court Sq,G22N,G
Court Sq,719S,7
Court Sq,719N,7
Court Sq,719N,7X
Court Sq-23 St,F09S,M
Court Sq-23 St,F09N,E
Court Sq-23 St,F09S,E
Court Sq-23 St,F09N,M
Court St,R28S,R
Court St,R28N,R
Crescent St,J20S,J
Crescent St,J20N,J
Crown Hts-Utica Av,250S,5
Crown Hts-Utica Av,250N,4
Crown Hts-Utica Av,250N,3
Crown Hts-Utica Av,250S,3
Crown Hts-Utica Av,250S,4
Cypress Av,617S,6
Cypress Av,617N,6
Cypress Hills,J19N,J
Cypress Hills,J19S,J
DeKalb Av,R30N,B
DeKalb Av,R30S,Q
DeKalb Av,R30N,R
DeKalb Av,L16S,L
DeKalb Av,R30S,R
DeKalb Av,R30N,Q
DeKalb Av,L16N,L
DeKalb Av,R30S,B
Delancey St-Essex St,M18N,J
Delancey St-Essex St,M18N,M
Delancey St-Essex St,F15N,F
Delancey St-Essex St,M18S,M
Delancey St-Essex St,F15S,F
Delancey St-Essex St,M18S,J
Ditmas Av,F29N,F
Ditmas Av,F29S,F
Dongan Hills,S25S,SI
Dongan Hills,S25N,SI
Dyckman St,109S,1
Dyckman St,109N,1
Dyckman St,A03N,A
Dyckman St,A03S,A
E 143 St-St Mary's St,616S,6
E 143 St-St Mary's St,616N,6
E 149 St,615N,6
E 149 St,615S,6
E 180 St,213N,5
E 180 St,213N,2
E 180 St,213S,5
E 180 St,213S,2
East 105 St,L28N,L
East 105 St,L28S,L
East Broadway,F16S,F
East Broadway,F16N,F
Eastchester-Dyre Av,501N,5
Eastchester-Dyre Av,501S,5
Eastern Pkwy-Brooklyn Museum,238S,2
Eastern Pkwy-Brooklyn Museum,238N,3
Eastern Pkwy-Brooklyn Museum,238S,3
Eastern Pkwy-Brooklyn Museum,238N,2
Elder Av,611S,6
Elder Av,611N,6
Elmhurst Av,G13N,M
Elmhurst Av,G13N,R
Elmhurst Av,G13S,R
Elmhurst Av,G13S,M
Eltingville,S18S,SI
Eltingville,S18S,SS
Eltingville,S18N,SI
Euclid Av,A55S,A
Euclid Av,A55N,A
Euclid Av,A55N,C
Euclid Av,A55S,C
Far Rockaway-Mott Av,H11N,A
Far Rockaway-Mott Av,H11S,A
Flatbush Av-Brooklyn College,247S,5
Flatbush Av-Brooklyn College,247N,2
Flatbush Av-Brooklyn College,247S,2
Flatbush Av-Brooklyn College,247N,5
Flushing Av,M12S,M
Flushing Av,M12N,M
Flushing Av,M12S,J
Flushing Av,G31S,G
Flushing Av,G31N,G
Flushing-Main St,701S,7
Flushing-Main St,701S,7X
Flushing-Main St,701N,7X
Flushing-Main St,701N,7
Fordham Rd,D05S,D
Fordham Rd,D05N,B
Fordham Rd,407S,4
Fordham Rd,D05N,D
Fordham Rd,D05S,B
Fordham Rd,407N,4
Forest Av,M05N,M
Forest Av,M05S,M
Forest Hills-71 Av,G08S,M
Forest Hills-71 Av,G08S,E
Forest Hills-71 Av,G08N,E
Forest Hills-71 Av,G08N,M
Forest Hills-71 Av,G08S,F
Forest Hills-71 Av,G08N,F
Forest Hills-71 Av,G08N,R
Forest Hills-71 Av,G08S,R
Fort Hamilton Pkwy,B13N,D
Fort Hamilton Pkwy,N03S,N
Fort Hamilton Pkwy,B13S,D
Fort Hamilton Pkwy,F26S,G
Fort Hamilton Pkwy,F26N,F
Fort Hamilton Pkwy,F26S,F
Fort Hamilton Pkwy,N03N,N
Fort Hamilton Pkwy,F26N,G
Franklin Av,S01N,FS
Franklin Av,A45S,C
Franklin Av,S01S,FS
Franklin Av,A45N,C
Franklin Av-Medgar Evers College,239N,5
Franklin Av-Medgar Evers College,239S,5
Franklin Av-Medgar Evers College,239S,2
Franklin Av-Medgar Evers College,239N,4
Franklin Av-Medgar Evers College,239N,2
Franklin Av-Medgar Evers College,239S,3
Franklin Av-Medgar Evers College,239N,3
Franklin Av-Medgar Evers College,239S,4
Franklin St,136S,1
Franklin St,136N,1
Freeman St,216N,2
Freeman St,216S,2
Freeman St,216S,5
Freeman St,216N,5
Fresh Pond Rd,M04N,M
Fresh Pond Rd,M04S,M
Fulton St,229N,2
Fulton St,229S,3
Fulton St,418N,5
Fulton St,M22N,J
Fulton St,A38S,C
Fulton St,M22S,J
Fulton St,229N,3
Fulton St,A38S,A
Fulton St,418S,5
Fulton St,G36S,G
Fulton St,A38N,A
Fulton St,418S,4
Fulton St,G36N,G
Fulton St,229S,2
Fulton St,A38N,C
Fulton St,418N,4
Gates Av,J30S,J
Gates Av,J30N,J
Graham Av,L11S,L
Graham Av,L11N,L
Grand Army Plaza,237S,3
Grand Army Plaza,237S,2
Grand Army Plaza,237N,2
Grand Army Plaza,237N,3
Grand Av-Newtown,G12S,M
Grand Av-Newtown,G12N,M
Grand Av-Newtown,G12S,R
Grand Av-Newtown,G12N,R
Grand Central-42 St,631N,6X
Grand Central-42 St,631S,6
Grand Central-42 St,631N,4
Grand Central-42 St,723N,7
Grand Central-42 St,631S,5
Grand Central-42 St,631S,4
Grand Central-42 St,901N,GS
Grand Central-42 St,901S,GS
Grand Central-42 St,723S,7X
Grand Central-42 St,723S,7
Grand Central-42 St,631N,5
Grand Central-42 St,631N,6
Grand Central-42 St,723N,7X
Grand St,D22S,D
Grand St,D22N,D
Grand St,L12N,L
Grand St,L12S,L
Grand St,D22N,B
Grand St,D22S,B
Grant Av,A57N,A
Grant Av,A57S,A
Grant City,S23N,SI
Grant City,S23S,SI
Grasmere,S27N,SI
Grasmere,S27S,SI
Great Kills,S19N,SI
Great Kills,S19S,SI
Great Kills,S19S,SS
Greenpoint Av,G26S,G
Greenpoint Av,G26N,G
Gun Hill Rd,208N,2
Gun Hill Rd,208S,2
Gun Hill Rd,503N,5
Gun Hill Rd,503S,5
Halsey St,J29N,J
Halsey St,J29S,J
Halsey St,L19N,L
Halsey St,L19S,L
Harlem-148 St,301N,3
Harlem-148 St,301S,3
Hewes St,M14S,M
Hewes St,M14N,M
Hewes St,M14S,J
High St,A40N,C
High St,A40N,A
High St,A40S,A
High St,A40S,C
Houston St,134S,1
Houston St,134N,1
Howard Beach-JFK Airport,H03N,A
Howard Beach-JFK Airport,H03S,A
Hoyt St,233S,2
Hoyt St,233N,3
Hoyt St,233N,2
Hoyt St,233S,3
Hoyt-Schermerhorn Sts,A42S,A
Hoyt-Schermerhorn Sts,A42N,G
Hoyt-Schermerhorn Sts,A42N,A
Hoyt-Schermerhorn Sts,A42S,G
Hoyt-Schermerhorn Sts,A42N,C
Hoyt-Schermerhorn Sts,A42S,C
Huguenot,S16S,SS
Huguenot,S16N,SI
Huguenot,S16S,SI
Hunters Point Av,720S,7
Hunters Point Av,720S,7X
Hunters Point Av,720N,7
Hunters Point Av,720N,7X
Hunts Point Av,613S,6
Hunts Point Av,613N,6X
Hunts Point Av,613N,6
Intervale Av,218N,2
Intervale Av,218S,5
Intervale Av,218S,2
Intervale Av,218N,5
Inwood-207 St,A02N,A
Inwood-207 St,A02S,A
Jackson Av,220N,5
Jackson Av,220S,2
Jackson Av,220N,2
Jackson Av,220S,5
Jackson Hts-Roosevelt Av,G14N,E
Jackson Hts-Roosevelt Av,G14S,F
Jackson Hts-Roosevelt Av,G14S,M
Jackson Hts-Roosevelt Av,G14N,R
Jackson Hts-Roosevelt Av,G14N,M
Jackson Hts-Roosevelt Av,G14N,F
Jackson Hts-Roosevelt Av,G14S,R
Jackson Hts-Roosevelt Av,G14S,E
Jamaica Center-Parsons/Archer,G05S,J
Jamaica Center-Parsons/Archer,G05N,J
Jamaica Center-Parsons/Archer,G05N,E
Jamaica Center-Parsons/Archer,G05S,E
Jamaica-179 St,F01S,F
Jamaica-179 St,F01N,F
Jamaica-179 St,F01S,E
Jamaica-Van Wyck,G07N,E
Jamaica-Van Wyck,G07S,E
Jay St-MetroTech,A41S,C
Jay St-MetroTech,A41N,C
Jay St-MetroTech,A41S,F
Jay St-MetroTech,A41N,A
Jay St-MetroTech,A41S,A
Jay St-MetroTech,A41N,F
Jay St-MetroTech,R29S,R
Jay St-MetroTech,R29N,R
Jefferson Av,S24N,SI
Jefferson Av,S24S,SI
Jefferson St,L15S,L
Jefferson St,L15N,L
Junction Blvd,707S,7X
Junction Blvd,707N,7X
Junction Blvd,707N,7
Junction Blvd,707S,7
Junius St,254S,3
Junius St,254N,3
Kew Gardens-Union Tpke,F06S,F
Kew Gardens-Union Tpke,F06S,E
Kew Gardens-Union Tpke,F06N,E
Kew Gardens-Union Tpke,F06N,F
Kings Hwy,N08N,N
Kings Hwy,D35S,Q
Kings Hwy,D35N,B
Kings Hwy,D35S,B
Kings Hwy,F35S,F
Kings Hwy,D35N,Q
Kings Hwy,N08S,N
Kings Hwy,F35N,F
Kingsbridge Rd,D04N,B
Kingsbridge Rd,D04S,D
Kingsbridge Rd,D04S,B
Kingsbridge Rd,406S,4
Kingsbridge Rd,406N,4
Kingsbridge Rd,D04N,D
Kingston Av,249S,3
Kingston Av,249N,3
Kingston-Throop Avs,A47S,C
Kingston-Throop Avs,A47N,C
Knickerbocker Av,M09S,M
Knickerbocker Av,M09N,M
Kosciuszko St,J31S,J
Kosciuszko St,J31N,J
Lafayette Av,A43N,C
Lafayette Av,A43N,A
Lafayette Av,A43S,C
Lexington Av/53 St,F11S,E
Lexington Av/53 St,F11S,M
Lexington Av/53 St,F11N,M
Lexington Av/53 St,F11N,E
Lexington Av/59 St,R11N,W
Lexington Av/59 St,R11N,R
Lexington Av/59 St,R11N,N
Lexington Av/59 St,R11S,W
Lexington Av/59 St,R11S,R
Lexington Av/59 St,R11S,N
Lexington Av/63 St,B08S,N
Lexington Av/63 St,B08N,F
Lexington Av/63 St,B08S,F
Lexington Av/63 St,B08N,N
Lexington Av/63 St,B08N,Q
Lexington Av/63 St,B08S,Q
Liberty Av,A52N,C
Liberty Av,A52S,C
Livonia Av,L26S,L
Livonia Av,L26N,L
Longwood Av,614N,6
Longwood Av,614S,6
Lorimer St,L10S,L
Lorimer St,L10N,L
Lorimer St,M13N,M
Lorimer St,M13S,M
Lorimer St,M13S,J
Marble Hill-225 St,106N,1
Marble Hill-225 St,106S,1
Marcy Av,M16N,M
Marcy Av,M16S,J
Marcy Av,M16N,J
Marcy Av,M16S,M
Metropolitan Av,G29N,G
Metropolitan Av,G29S,G
Mets-Willets Point,702S,7
Mets-Willets Point,702N,7
Mets-Willets Point,702N,7X
Mets-Willets Point,702S,7X
Middle Village-Metropolitan Av,M01N,M
Middle Village-Metropolitan Av,M01S,M
Middletown Rd,603S,6
Middletown Rd,603N,6X
Montrose Av,L13S,L
Montrose Av,L13N,L
Morgan Av,L14S,L
Morgan Av,L14N,L
Morris Park,505S,5
Morris Park,505N,5
Morrison Av-Soundview,610S,6
Morrison Av-Soundview,610N,6
Mosholu Pkwy,402N,4
Mosholu Pkwy,402S,4
Mt Eden Av,411N,4
Mt Eden Av,411S,4
Myrtle Av,M11S,J
Myrtle Av,M11N,J
Myrtle Av,M11N,M
Myrtle Av,M11S,M
Myrtle-Willoughby Avs,G32N,G
Myrtle-Willoughby Avs,G32S,G
Myrtle-Wyckoff Avs,L17S,L
Myrtle-Wyckoff Avs,M08N,M
Myrtle-Wyckoff Avs,L17N,L
Myrtle-Wyckoff Avs,M08S,M
Nassau Av,G28N,G
Nassau Av,G28S,G
Neck Rd,D38N,Q
Neck Rd,D38S,Q
Neptune Av,F39N,F
Neptune Av,F39S,F
Nereid Av,204S,2
Nereid Av,204N,2
Nevins St,234N,4
Nevins St,234N,5
Nevins St,234S,4
Nevins St,234S,2
Nevins St,234N,2
Nevins St,234S,5
Nevins St,234N,3
Nevins St,234S,3
New Dorp,S22S,SI
New Dorp,S22N,SI
New Lots Av,257S,3
New Lots Av,L27N,L
New Lots Av,L27S,L
New Lots Av,257N,3
New Utrecht Av,N04N,N
New Utrecht Av,N04S,N
Newkirk Av-Little Haiti,246N,5
Newkirk Av-Little Haiti,246S,2
Newkirk Av-Little Haiti,246N,2
Newkirk Av-Little Haiti,246S,5
Newkirk Plaza,D31N,B
Newkirk Plaza,D31S,Q
Newkirk Plaza,D31S,B
Newkirk Plaza,D31N,Q
None,H17N,A
None,R60S,W
None,H05S,A
None,A58N,A
None,H18N,A
None,A62S,A
None,A39N,A
None,R60S,R
None,D60N,B
None,A29N,A
None,H17S,A
None,R60N,W
None,R60S,N
None,H18S,A
None,X22N,M
None,R65N,R
None,A62N,A
None,R65S,R
None,R60N,N
None,H05N,A
None,R60N,R
Northern Blvd,G16S,M
Northern Blvd,G16N,R
Northern Blvd,G16S,R
Northern Blvd,G16N,M
Norwood Av,J21N,J
Norwood Av,J21S,J
Norwood-205 St,D01N,D
Norwood-205 St,D01S,D
Nostrand Av,A46N,A
Nostrand Av,A46S,A
Nostrand Av,248S,3
Nostrand Av,A46S,C
Nostrand Av,248N,3
Nostrand Av,A46N,C
Oakwood Heights,S21S,SI
Oakwood Heights,S21N,SI
Ocean Pkwy,D41N,Q
Ocean Pkwy,D41S,Q
Old Town,S26S,SI
Old Town,S26N,SI
Ozone Park-Lefferts Blvd,A65N,A
Ozone Park-Lefferts Blvd,A65S,A
Park Pl,S03N,FS
Park Pl,S03S,FS
Park Place,228N,2
Park Place,228S,3
Park Place,228S,2
Park Place,228N,3
Parkchester,608N,6X
Parkchester,608S,6
Parkchester,608N,6
Parkside Av,D27S,Q
Parkside Av,D27N,Q
Parsons Blvd,F03S,E
Parsons Blvd,F03N,F
Parsons Blvd,F03S,F
Pelham Bay Park,601S,6
Pelham Bay Park,601N,6X
Pelham Pkwy,504S,5
Pelham Pkwy,504N,5
Pelham Pkwy,211N,2
Pelham Pkwy,211S,2
Pennsylvania Av,255S,3
Pennsylvania Av,255N,3
Pleasant Plains,S14S,SS
Pleasant Plains,S14N,SI
Pleasant Plains,S14S,SI
President St-Medgar Evers College,241N,5
President St-Medgar Evers College,241S,5
President St-Medgar Evers College,241N,2
President St-Medgar Evers College,241S,2
Prince St,R22N,R
Prince St,R22N,W
Prince St,R22S,R
Prince St,R22S,W
Prince's Bay,S15S,SS
Prince's Bay,S15S,SI
Prince's Bay,S15N,SI
Prospect Av,219N,5
Prospect Av,219N,2
Prospect Av,R34N,R
Prospect Av,R34S,R
Prospect Av,219S,5
Prospect Av,219S,2
Prospect Park,D26N,FS
Prospect Park,D26S,B
Prospect Park,D26N,Q
Prospect Park,D26S,Q
Prospect Park,D26N,B
Prospect Park,D26S,FS
Queens Plaza,G21N,M
Queens Plaza,G21S,E
Queens Plaza,G21N,R
Queens Plaza,G21N,E
Queens Plaza,G21S,M
Queens Plaza,G21S,R
Queensboro Plaza,R09S,W
Queensboro Plaza,R09N,W
Queensboro Plaza,R09S,N
Queensboro Plaza,718S,7X
Queensboro Plaza,718N,7X
Queensboro Plaza,718S,7
Queensboro Plaza,718N,7
Queensboro Plaza,R09N,N
Ralph Av,A49S,C
Ralph Av,A49N,C
Rector St,R26S,R
Rector St,139N,1
Rector St,R26N,W
Rector St,139S,1
Rector St,R26S,W
Rector St,R26N,R
Richmond Valley,S13S,SS
Richmond Valley,S13N,SI
Richmond Valley,S13S,SI
Rockaway Av,A50N,C
Rockaway Av,A50S,C
Rockaway Av,253S,3
Rockaway Av,253N,3
Rockaway Blvd,A61S,A
Rockaway Blvd,A61N,A
Rockaway Park-Beach 116 St,H15S,A
Rockaway Park-Beach 116 St,H15N,H
Rockaway Park-Beach 116 St,H15S,H
Roosevelt Island,B06N,F
Roosevelt Island,B06S,F
Saratoga Av,252N,3
Saratoga Av,252S,3
Seneca Av,M06S,M
Seneca Av,M06N,M
Sheepshead Bay,D39S,B
Sheepshead Bay,D39N,Q
Sheepshead Bay,D39S,Q
Sheepshead Bay,D39N,B
Shepherd Av,A54S,C
Shepherd Av,A54N,C
Simpson St,217N,2
Simpson St,217N,5
Simpson St,217S,2
Simpson St,217S,5
Smith-9 Sts,F22S,G
Smith-9 Sts,F22N,F
Smith-9 Sts,F22S,F
Smith-9 Sts,F22N,G
South Ferry,142S,1
South Ferry,142N,1
Spring St,638N,6
Spring St,638S,6
Spring St,A33S,C
Spring St,A33N,A
Spring St,A33S,E
Spring St,A33N,E
Spring St,638N,6X
Spring St,A33N,C
St George,S31S,SI
St George,S31N,SI
St George,S31S,SS
St Lawrence Av,609S,6
St Lawrence Av,609N,6
Stapleton,S29S,SI
Stapleton,S29N,SI
Steinway St,G19N,R
Steinway St,G19N,M
Steinway St,G19S,R
Steinway St,G19S,M
Sterling St,242N,2
Sterling St,242S,5
Sterling St,242S,2
Sterling St,242N,5
Sutphin Blvd,F04S,F
Sutphin Blvd,F04N,F
Sutphin Blvd-Archer Av-JFK Airport,G06N,E
Sutphin Blvd-Archer Av-JFK Airport,G06S,E
Sutphin Blvd-Archer Av-JFK Airport,G06N,J
Sutphin Blvd-Archer Av-JFK Airport,G06S,J
Sutter Av,L25S,L
Sutter Av,L25N,L
Sutter Av-Rutland Rd,251N,3
Sutter Av-Rutland Rd,251S,3
Times Sq-42 St,725N,7X
Times Sq-42 St,R16S,R
Times Sq-42 St,127N,2
Times Sq-42 St,902S,GS
Times Sq-42 St,725S,7X
Times Sq-42 St,R16S,N
Times Sq-42 St,127N,1
Times Sq-42 St,R16S,Q
Times Sq-42 St,725S,7
Times Sq-42 St,127S,2
Times Sq-42 St,127S,1
Times Sq-42 St,902N,GS
Times Sq-42 St,R16N,Q
Times Sq-42 St,725N,7
Times Sq-42 St,127S,3
Times Sq-42 St,R16N,W
Times Sq-42 St,R16S,W
Times Sq-42 St,127N,3
Times Sq-42 St,R16N,R
Times Sq-42 St,R16N,N
Tompkinsville,S30N,SI
Tompkinsville,S30S,SI
Tottenville,S09S,SI
Tottenville,S09N,SI
Tottenville,S09S,SS
Tremont Av,D07N,D
Tremont Av,D07S,B
Tremont Av,D07N,B
Tremont Av,D07S,D
Union St,R32S,R
Union St,R32N,R
Utica Av,A48S,A
Utica Av,A48N,A
Utica Av,A48S,C
Utica Av,A48N,C
Van Cortlandt Park-242 St,101S,1
Van Cortlandt Park-242 St,101N,1
Van Siclen Av,J23N,J
Van Siclen Av,J23S,J
Van Siclen Av,256N,3
Van Siclen Av,A53N,C
Van Siclen Av,256S,3
Van Siclen Av,A53S,C
Vernon Blvd-Jackson Av,721S,7
Vernon Blvd-Jackson Av,721N,7X
Vernon Blvd-Jackson Av,721S,7X
Vernon Blvd-Jackson Av,721N,7
W 4 St-Wash Sq,A32N,A
W 4 St-Wash Sq,D20S,M
W 4 St-Wash Sq,D20N,B
W 4 St-Wash Sq,D20S,B
W 4 St-Wash Sq,A32N,C
W 4 St-Wash Sq,A32S,A
W 4 St-Wash Sq,D20N,F
W 4 St-Wash Sq,A32S,E
W 4 St-Wash Sq,D20S,F
W 4 St-Wash Sq,D20N,M
W 4 St-Wash Sq,D20N,D
W 4 St-Wash Sq,D20S,D
W 4 St-Wash Sq,A32S,C
W 4 St-Wash Sq,A32N,E
W 8 St-NY Aquarium,D42S,F
W 8 St-NY Aquarium,D42S,Q
W 8 St-NY Aquarium,D42N,Q
W 8 St-NY Aquarium,D42N,F
WTC Cortlandt,138S,1
WTC Cortlandt,138N,1
Wakefield-241 St,201N,2
Wakefield-241 St,201S,2
Wall St,230S,3
Wall St,419S,5
Wall St,230N,2
Wall St,419S,4
Wall St,230N,3
Wall St,419N,5
Wall St,419N,4
Wall St,230S,2
West Farms Sq-E Tremont Av,214N,2
West Farms Sq-E Tremont Av,214S,5
West Farms Sq-E Tremont Av,214S,2
West Farms Sq-E Tremont Av,214N,5
Westchester Sq-E Tremont Av,604S,6
Westchester Sq-E Tremont Av,604N,6X
Whitehall St-South Ferry,R27N,R
Whitehall St-South Ferry,R27S,R
Whitehall St-South Ferry,R27N,W
Whitehall St-South Ferry,R27S,W
Whitlock Av,612S,6
Whitlock Av,612N,6
Wilson Av,L20S,L
Wilson Av,L20N,L
Winthrop St,243S,5
Winthrop St,243N,5
Winthrop St,243N,2
Winthrop St,243S,2
Woodhaven Blvd,G11N,M
Woodhaven Blvd,G11S,R
Woodhaven Blvd,J15N,J
Woodhaven Blvd,G11N,R
Woodhaven Blvd,J15S,J
Woodhaven Blvd,G11S,M
Woodlawn,401S,4
Woodlawn,401N,4
World Trade Center,E01S,E
World Trade Center,E01N,E
York St,F18N,F
York St,F18S,F
Zerega Av,606N,6X
Zerega Av,606S,6
